Film,Year,URL Encoded name,Image File Name,Agency Credit,Artist Credit,Director/Filmmaker Name,Director/Filmmaker IMDB Link,Location Display Text,LATITUDE,LONGITUDE,Borough,Neighborhood,Scene Type,Media,IMDB LINK,Client or book location indicator,Notes,Book Image,Book Page,Display?,IMAGE OF LOCATION
*batteries not included,1987,%2Abatteries%20not%20included,batteriesnotincluded_pf,Courtesy of Photofest,Directed by,Matthew Robbins,http://imdb.com/name/nm0730422/,E. 5th St.<br>East Village<br>Manhattan,40.7224453,-73.97865057,Manhattan,East Village,N/A,Film,http://imdb.com/title/tt0092494/,N/A,,Y,190,,Y
12 Angry Men,1957,12%20Angry%20Men,12AngryMen_pf,Courtesy of Photofest,Directed by,Sidney Lumet,http://imdb.com/name/nm0001486/,New York County Courthouse<br>40 Foley Square<br>Lower Manhattan,40.7137,-74.0079,Manhattan,Lower Manhattan,N/A,Film,http://imdb.com/title/tt0050083/,"New York County
Courthouse on Foley Square.",,Y,40,,Y
13 Going on 30,2004,13%20Going%20on%2030,13Goingon30_ec,"Courtesy of Everett Collection, Inc.",Directed by,Gary Winick,http://imdb.com/name/nm0935095/,W. 47th St. and Seventh Ave.<br>Times Square<br>Manhattan,40.75922049,-73.98462117,Manhattan,Times Square,N/A,Film,http://www.imdb.com/title/tt0337563/,"47th St. and 7th Ave. Times Square
Manhattan",,Y,239,,Y
15 Minutes,2001,15%20Minutes,,,Directed by,John Herzfeld,http://imdb.com/name/nm0381273/,E. 60-66th St. and Madison Ave.<br>Upper East Side<br>Manhattan,40.7661,-73.9696,Manhattan,Upper East Side,Chases,Film,http://www.imdb.com/title/tt0179626/,60-66th and Madison,,Y,82,,N
25th Hour,2002,25th%20Hour,25thHour1_pf,Courtesy of Photofest,Directed by,Spike Lee,http://www.imdb.com/name/nm0000490/,World Trade Center<br>Lower Manhattan,40.71179263,-74.01232839,Manhattan,Lower Manhattan,N/A,Film,http://www.imdb.com/title/tt0307901/,World Trade Center,,Y,93,,Y
25th Hour,2002,25th%20Hour,25thHour2_pf,Courtesy of Photofest,Directed by,Spike Lee,http://www.imdb.com/name/nm0000490/,Carl Schurz Park<br>Upper East Side<br>Manhattan,40.77506559,-73.94312739,Manhattan,Upper East Side,N/A,Film,http://www.imdb.com/title/tt0307901/,Carl Schurz Park btwn 84th and 85th and promenade,,Y,209,,Y
A Perfect Murder,1998,A%20Perfect%20Murder,,,Directed by,Andrew Davis,http://imdb.com/name/nm0001112/,Long Island City,40.74607025,-73.95038009,Queens,Queens,N/A,Film,http://www.imdb.com/title/tt0120787/,Long Island City,,Y,141,N,N
A Thousand Clowns,1965,A%20Thousand%20Clowns,AThousandClowns_pf,Courtesy of Photofest,Directed by,Fred Coe,http://imdb.com/name/nm0168641/,Statue of Liberty<br>Liberty Island<br>New York Harbor,40.68958731,-74.04379606,Manhattan,New York Harbor,N/A,Film,http://www.imdb.com/title/tt0059798/,"Statue of Liberty, Liberty Island, New York Harbor",poor quality,Y,51,,Y
Across the Sea of Time,1997,Across%20the%20Sea%20of%20Time,AcrossTheSeaOfTime_pf,Courtesy of Photofest,Directed by,Stephen Low,http://imdb.com/name/nm0522844/,New York Harbor,40.69899091,-74.03849602,Manhattan,New York Harbor,N/A,Film,http://imdb.com/title/tt0112286/,,,Y,,,Y
After Hours,1985,After%20Hours,,,Directed by,Martin Scorsese,http://imdb.com/name/nm0000217/,Mercer and Grand<br>SoHo<br>Manhattan,40.7213,-74.0015,Manhattan,SoHo,N/A,Film,http://www.imdb.com/title/tt0088680/,SoHo,,Y,154,N,N
Alice,1990,Alice,,,Directed by,Woody Allen,http://www.imdb.com/name/nm0000095/,E. 95th St. off Madison Ave.<br>Upper East Side<br>Manhattan,40.7866,-73.9547,Manhattan,Upper East Side,N/A,Film,http://www.imdb.com/title/tt0099012/,95th Street off Madison Avenue,,Y,224,,N
American Psycho,2000,American%20Psycho,AmericanPyscho_ec,"Courtesy of Everett Collection, Inc.",Directed by,Mary Harron,http://www.imdb.com/name/nm0366004/,Chinatown<br>Manhattan,40.71621654,-73.99808049,Manhattan,Chinatown,N/A,Film,http://www.imdb.com/title/tt0144084/,Chinatown,,Y,140,,Y
An Unmarried Woman,1978,An%20Unmarried%20Woman,,,Directed by,Paul Mazursky,http://imdb.com/name/nm0005196/,Mercer St. between Spring and Broome<br>SoHo<br>Manhattan,40.72255913,-74.00029063,Manhattan,SoHo,N/A,Film,http://www.imdb.com/title/tt0078444/,SoHo,,Y,152-153,N,N
Annie Hall,1977,Annie%20Hall,AnnieHall2_pf,Courtesy of Photofest,Directed by,Woody Allen,http://www.imdb.com/name/nm0000095/,Coney Island<br>Brooklyn,40.57360922,-73.97596836,Brooklyn,Brooklyn,N/A,Film,http://www.imdb.com/title/tt0075686/,Coney Island boardwalk,,Y,136,,N
Annie Hall,1977,Annie%20Hall,AnnieHall2_pf,Courtesy of Photofest,Directed by,Woody Allen,http://www.imdb.com/name/nm0000095/,Pier 11<br>Manhattan,40.70420461,-74.0060252,Manhattan,Lower Manhattan,N/A,Film,http://www.imdb.com/title/tt0075686/,Pier 11,,Y,121,,N
Annie Hall,1977,Annie%20Hall,AnnieHall2_pf,Courtesy of Photofest,Directed by,Woody Allen,http://www.imdb.com/name/nm0000095/,Foot of 59th St. Bridge<br>Upper East Side<br>Manhattan,40.75780643,-73.95962834,Manhattan,Midtown,N/A,Film,http://www.imdb.com/title/tt0075686/,foot of 58th street bridge,,N,,,N
Annie Hall,1977,Annie%20Hall,AnnieHall2_pf,Courtesy of Photofest,Directed by,Woody Allen,http://www.imdb.com/name/nm0000095/,E. 68th St. between Park Ave. and Madison Ave.<br>Upper East Side<br>Manhattan,40.76890676,-73.96660209,Manhattan,Upper East Side,N/A,Film,http://www.imdb.com/title/tt0075686/,68th Street bet Park and Madison Aves,,Y,114,,N
Annie Hall,1977,Annie%20Hall,AnnieHall2_pf,Courtesy of Photofest,Directed by,Woody Allen,http://www.imdb.com/name/nm0000095/,W. 95th St.<br>Upper West Side<br>Manhattan,40.79163797,-73.96653771,Manhattan,Upper West Side,N/A,Film,http://www.imdb.com/title/tt0075686/,West 95th Street,,Y,222,,Y
Arthur,1981,Arthur,Arthur_pf,Courtesy of Photofest,Directed by,Steve Gordon,http://imdb.com/name/nm0330619/,Bergdorf's at 754 Fifth Ave.<br>Midtown<br>Manhattan,40.763334,-73.973891,Manhattan,Midtown,N/A,Film,http://www.imdb.com/title/tt0082031/,"in front of Bergorf's, 5th Ave at 58th street",,N,,,Y
As Good As It Gets,1997,As%20Good%20As%20It%20Gets,AsGoodAsitgets_pf,Courtesy of Photofest,Directed by,James L. Brooks,http://imdb.com/name/nm0000985/,Sixth Ave. between 11th St. and 12th St.<br>West Village<br>Manhattan,40.7354051,-73.99831653,Manhattan,West Village,N/A,Film,http://imdb.com/title/tt0119822/,Sixth Avenue btwn 11th ansd 12th St east side of 6th Ave,,Y,206,,Y
Barefoot in the Park,1967,Barefoot%20in%20the%20Park,BarefootinthePark2_pf,Courtesy of Photofest,Directed by,Gene Saks,http://imdb.com/name/nm0757256/,Washington Square Park<br>West Village<br>Manhattan,40.7307223,-73.99651408,Manhattan,West Village,N/A,Film,http://www.imdb.com/title/tt0061385/,Washington Square Park,poor quality,Y,74-75,,Y
Barefoot in the Park,1967,Barefoot%20in%20the%20Park,BarefootinthePark1_pf,Courtesy of Photofest,Directed by,Gene Saks,http://imdb.com/name/nm0757256/,Greenwich St. and Christopher St.<br>Greenwich Village<br>Manhattan,40.73311252,-74.00741458,Manhattan,SoHo,N/A,Film,http://www.imdb.com/title/tt0061385/,Greenwhich Street near Christopher Street,,Y,74-75,,Y
Basquiat,1996,Basquiat,Basquiat_pf,Courtesy of Photofest,Directed by,Julian Schnabel,http://imdb.com/name/nm0773603/,Lower East Side<br>Manhattan,40.71818443,-73.98885369,Manhattan,Lower East Side,N/A,Film,http://www.imdb.com/title/tt0115632/,[Ludlow below Delancy ] Lower East Side,,Y,187,,Y
Bed of Roses,1996,Bed%20of%20Roses,,,Directed by,Michael Goldenberg,http://imdb.com/name/nm0325533/,Chelsea,40.74324155,-74.00196433,Manhattan,Chelsea,Rooftops,Film,http://www.imdb.com/title/tt0115644/,chelsea (midtown),,Y,231,N,N
BIG,1988,BIG,Big_pf,Courtesy of Photofest,Directed by,Penny Marshall,http://imdb.com/name/nm0001508/,F.A.O. Schwarz at 767 Fifth Ave.<br>Midtown<br>Manhattan,40.764053,-73.972978,Manhattan,Midtown,N/A,Film,http://www.imdb.com/title/tt0094737/,F.A.O. Schwarz - 58th and Fifth Avenue,poor quality,Y,162-163,,Y
Blue in the Face,1995,Blue%20in%20the%20Face,,,Directed by,"Paul Auster,Wayne Wang","http://imdb.com/name/nm0000808/,http://imdb.com/name/nm0911061/",Prospect Park West and 16th St.<br>Windsor Terrace<br>Brooklyn,40.65749448,-73.97406936,Brooklyn,Brooklyn,N/A,Film,http://www.imdb.com/title/tt0112541/,Prospect Park West and 16th Street in Windsor Terrace,,Y,177,,N
Breakfast at Tiffany's,1961,Breakfast%20at%20Tiffany%27s,BreakfastatTiffanys3_ec,"Courtesy of Everett Collection, Inc.",Directed by,Blake Edwards,http://imdb.com/name/nm0001175/,Tiffany & Co. at 727 Fifth Ave.<br>Midtown<br>Manhattan,40.76251,-73.974142,Manhattan,Midtown,N/A,Film,http://www.imdb.com/title/tt0054698/,Tiffany & Co. - 727 Fifth Avenue at 57th Street,,Y,49,,Y
Breakfast at Tiffany's,1961,Breakfast%20at%20Tiffany%27s,BreakfastatTiffanys2_ec,"Courtesy of Everett Collection, Inc.",Directed by,Blake Edwards,http://imdb.com/name/nm0001175/,E. 71st St.<br>Upper East Side<br>Manhattan,40.77136061,-73.96643043,Manhattan,Upper East Side,N/A,Film,http://www.imdb.com/title/tt0054698/,Tiffany & Co. - 727 Fifth Avenue at 57th Street,,Y,48,,Y
Breakfast at Tiffany's,1961,Breakfast%20at%20Tiffany%27s,BreakfastatTiffanys1_ec,"Courtesy of Everett Collection, Inc.",Directed by,Blake Edwards,http://imdb.com/name/nm0001175/,Central Park Mall<br>Manhattan,40.77321313,-73.97127986,Manhattan,Central Park,N/A,Film,http://www.imdb.com/title/tt0054698/,Tiffany & Co. - 727 Fifth Avenue at 57th Street,,Y,48,,Y
Broadway Danny Rose,1984,Broadway%20Danny%20Rose,BroadwayDannyRose_pf,Courtesy of Photofest,Directed by,Woody Allen,http://www.imdb.com/name/nm0000095/,Carnegie Deli at 854 Seventh Ave.<br>Midtown<br>Manhattan,40.764073,-73.981288,Manhattan,Midtown,N/A,Film,http://www.imdb.com/title/tt0087003/,Carnegie Deli - 7th Avenue at 55th Street,poor quality,Y,158,,Y
Cagney & Lacey,1982-1988,Cagney%20%26%20Lacey,CagneyandLacey_pf,Courtesy of Photofest,Created by,"Barbara Avedon,Barbara Corday,(more)","http://imdb.com/name/nm0042853/,http://imdb.com/name/nm0179400/,http://imdb.com/title/tt0083395/fullcredits#writers",Howard Beach<br>Queens,40.66553541,-73.8412571,Queens,Queens,N/A,TV,http://imdb.com/title/tt0083395/,Howard Beach ,,Y,256,,Y
Center Stage,2000,Center%20Stage,,,Directed by,Nicholas Hytner,http://imdb.com/name/nm0405336/,American Ballet Theater<br>890 Broadway<br>Manhattan,40.738641,-73.989774,Manhattan,Midtown,N/A,Film,http://www.imdb.com/title/tt0210616/,American Ballet Theater: 890 Broadway,,Y,215,,N
Chasing Amy,1997,Chasing%20Amy,,,Directed by,Kevin Smith,http://imdb.com/name/nm0003620/,269 E. Houston St.<br>Lower East Side<br>Manhattan,40.721516,-73.984616,Manhattan,Lower East Side,N/A,Film,http://www.imdb.com/title/tt0118842/,269 East Houston Street,,Y,188,,N
Chelsea Walls,2001,Chelsea%20Walls,ChelseaWalls_pf,Courtesy of Photofest,Directed by,Ethan Hawke,http://imdb.com/name/nm0000160/,Chelsea Hotel on W. 23rd St.<br>Chelsea<br>Manhattan,40.744287,-73.996497,Manhattan,Midtown,N/A,Film,http://www.imdb.com/title/tt0226935/,"Chelsea Hotel, 23rd street",,Y,242,,Y
Clockers,1995,Clockers,Clockers2_pf,Courtesy of Photofest,Directed by,Spike Lee,http://www.imdb.com/name/nm0000490/,Gowanus Houses<br>Brooklyn,40.6841528,-73.98804903,Brooklyn,Brooklyn,N/A,Film,http://www.imdb.com/title/tt0112688/,"Gowanus Houses: Wycoff, Douglass, Bond and Hoyt streets",We have another photo,Y,178,,Y
Coogan's Bluff,1968,Coogan%27s%20Bluff,CoogansBluff_pf,Courtesy of Photofest,Directed by,Don Siegel,http://imdb.com/name/nm0796923/,Fort Tryon Park<br>Manhattan,40.85946031,-73.93408298,Manhattan,Fort George,N/A,Film,http://www.imdb.com/title/tt0062824/,Fort Tyron Park,,Y,95,,Y
Cotton Comes to Harlem,1970,Cotton%20Comes%20to%20Harlem,,,Directed by,Ossie Davis,http://imdb.com/name/nm0001115/,Harlem,40.80650084,-73.93928647,Manhattan,Harlem,N/A,Film,http://imdb.com/title/tt0065579/,Harlem,,Y,100,N,N
Crocodile Dundee,1986,Crocodile%20Dundee,CrocodileDundee3_pf,Courtesy of Photofest,Directed by,Peter Faiman,http://imdb.com/name/nm0265363/,Fifth Ave. and 53rd St.<br>Midtown<br>Manhattan,40.7604,-73.9758,Manhattan,Midtown,N/A,Film,http://imdb.com/title/tt0090555/,Fifth Avenue,,Y,133,,Y
Crocodile Dundee II,1988,Crocodile%20Dundee%20II,CrocodileDundee4_pf,Courtesy of Photofest,Directed by,John Cornell,http://imdb.com/name/nm0180259/,"Chambers St. near Centre St.<br>Lower Manhattan
",40.713452,-74.004373,Manhattan,SoHo,N/A,Film,http://www.imdb.com/title/tt0092493/,Chambers St bet Elk St and Centre St,We have another photo,Y,162,,Y
Crooklyn,1994,Crooklyn,crooklyn1_pf,Courtesy of Photofest,Directed by,Spike Lee,http://www.imdb.com/name/nm0000490/,Stuyvesant Ave. and Macon St.<br>Brooklyn,40.6831114,-73.93205523,Brooklyn,Brooklyn,N/A,Film,http://www.imdb.com/title/tt0109504/,Brooklyn - streets TK,We have another photo,Y,190,,Y
Crossing Delancey,1988,Crossing%20Delancey,,,Directed by,Joan Micklin Silver,http://imdb.com/name/nm0798717/,35 Essex St.<br>Lower East Side<br>Manhattan,40.71605,-73.989749,Manhattan,Lower East Side,New York Moments,Film,http://www.imdb.com/title/tt0094921/,35 Essex Street,,Y,198,,N
Cruising,1980,Cruising,Cruising_pf,Courtesy of Photofest,Directed by,William Friedkin,http://imdb.com/name/nm0001243/,West Village<br>Manhattan,40.72898243,-74.0008378,Manhattan,West Village,N/A,Film,http://www.imdb.com/title/tt0080569/,Central Park,,Y,144,,Y
Cruising,1980,Cruising,Cruising_ec,"Courtesy of Everett Collection, Inc.",Directed by,William Friedkin,http://imdb.com/name/nm0001243/,Central Park<br>Manhattan,40.77920907,-73.9711833,Manhattan,Central Park,N/A,Film,http://www.imdb.com/title/tt0080569/,Central Park,,Y,144,,Y
Death to Smoochy,2002,Death%20to%20Smoochy,,,Directed by,Danny DeVito,http://imdb.com/name/nm0000362/,Seventh Ave. and 48th St.<br>Times Square<br>Manhattan,40.7598,-73.9842,Manhattan,Times Square,N/A,Film,http://www.imdb.com/title/tt0266452/,Times Square,Additional image p10-11,Y,6/238,,N
Death Wish,1974,Death%20Wish,DeathWish_pf,Courtesy of Photofest,Directed by,Michael Winner,http://imdb.com/name/nm0935382/,Subway Station near Court St.<br>Brooklyn,40.6938,-73.9904,Brooklyn,Brooklyn,The Subway,Film,http://www.imdb.com/title/tt0071402/,Subway near Court St.,,Y,67,,Y
Desperately Seeking Susan,1985,Desperately%20Seeking%20Susan,DesperatelySeeking_pf,Courtesy of Photofest,Directed by,Susan Seidelman,http://imdb.com/name/nm0782384/,St. Marks Place<br>East Village<br>Manhattan,40.729171,-73.98939,Manhattan,East Village,N/A,Film,http://www.imdb.com/title/tt0089017/,St. Marks Place,poor quality,Y,119,,Y
Desperately Seeking Susan,1985,Desperately%20Seeking%20Susan,DesperatelySeeking1_ec,"Courtesy of Everett Collection, Inc.",Directed by,Susan Seidelman,http://imdb.com/name/nm0782384/,George Washington Bus Terminal<br>Manhattan,40.849284,-73.936966,Manhattan,Fort George,N/A,Film,http://www.imdb.com/title/tt0089017/,George Washington Bus Terminal (uptown Port Authority),,Y,156,,Y
Die Hard: With a Vengeance,1995,Die%20Hard%3A%20With%20a%20Vengeance,DieHardWithAvengance_pf,Courtesy of Photofest,Directed by,John McTiernan,http://imdb.com/name/nm0001532/,Central Park South<br>Manhattan,40.76705413,-73.97899389,Manhattan,Central Park,Chases,Film,http://www.imdb.com/title/tt0112864/,CPS btwn 6th and 7th Ave,,Y,80,,Y
Do the Right Thing,1989,Do%20the%20Right%20Thing,DoTheRightthing3_pf,Courtesy of Photofest,Directed by,Spike Lee,http://www.imdb.com/name/nm0000490/,Stuyvesant Ave.<br>Bedford-Stuyvesant<br>Brooklyn,40.68931072,-73.93328905,Brooklyn,Brooklyn,N/A,Film,http://www.imdb.com/title/tt0097216/,"Stuyvesant Avenue
Bedford-Stuyvesant
Brooklyn",Various other photos,Y,174-175,,Y
Dog Day Afternoon,1972,Dog%20Day%20Afternoon,,,Directed by,Sidney Lumet,http://imdb.com/name/nm0001486/,Prospect Park South and 16th St.<br>Brooklyn,40.6572503,-73.97421956,Brooklyn,Brooklyn,N/A,Film,http://www.imdb.com/title/tt0072890/,Park Slope,,Y,"4,63",,N
Downtown 81 / New York Beat Movie,1981,Downtown%2081%20%2F%20New%20York%20Beat%20Movie,Downtown81_2_pf,Courtesy of Photofest,Directed by,Edo Bertoglio,http://imdb.com/name/nm0078166/,The Empire State Building<br>Midtown<br>Manhattan,40.74834612,-73.98488402,Manhattan,Midtown,N/A,Film,http://www.imdb.com/title/tt0208993/,"The Empire State building, 34th St and 5th Avenue",,N,125,,Y
Downtown 81 / New York Beat Movie,1981,Downtown%2081%20%2F%20New%20York%20Beat%20Movie,Downtown81_pf,Courtesy of Photofest,Directed by,Edo Bertoglio,http://imdb.com/name/nm0078166/,Guggenheim Museum<br>Upper East Side<br>Manhattan,40.782972,-73.959376,Manhattan,Upper East Side,N/A,Film,http://www.imdb.com/title/tt0208993/,"Guggenheim Musem, 88th St and 5th Avenue",,Y,125,,Y
Eternal Sunshine of the Spotless Mind,2004,Eternal%20Sunshine%20of%20the%20Spotless%20Mind,EternalSunshine_ec,"Courtesy of Everett Collection, Inc.",Directed by,Michel Gondry,http://imdb.com/name/nm0327273/,Orchard St. and Rivington St.<br>Lower East Side<br>Manhattan,40.7203,-73.9891,Manhattan,Lower East Side,N/A,Film,http://www.imdb.com/title/tt0338013/,Orchard Street,,Y,250-251,,Y
Fame,1980,Fame,,,Directed by,Alan Parker,http://imdb.com/name/nm0000570/,High School of the Performing Arts<br>120 W. 46th St.<br>Manhattan,40.757566,-73.983047,Manhattan,Times Square,N/A,Film,http://www.imdb.com/title/tt0080716/,46th street bet 6th ave and broadway,,Y,115,,N
Fame,1980,Fame,,,Directed by,Alan Parker,http://imdb.com/name/nm0000570/,W. 59th St. and Tenth Ave.<br>Upper West Side<br>Manhattan,40.7704,-73.9876,Manhattan,Upper West Side,N/A,Film,http://www.imdb.com/title/tt0080716/,59th Street and 10th Avenue,,Y,122,,N
Ferry Tales,2003,Ferry%20Tales,FerryTales_ec,"Courtesy of Everett Collection, Inc.",Directed by,Katja Esson,http://imdb.com/name/nm1534515/,St. George Station<br>Staten Island,40.64456836,-74.072721,Staten Island,Staten Island,N/A,Film,http://www.imdb.com/title/tt0363607/,Staten Island Ferry Terminal St. George,,Y,196-197,,Y
Force of Evil,1948,Force%20of%20Evil,,,Directed by,Abraham Polonsky,http://imdb.com/name/nm0689796/,George Washington Bridge<br>Manhattan,40.84936524,-73.94247293,Manhattan,Washington Heights,N/A,Film,http://imdb.com/title/tt0040366/,near the George Washington Bridge,,Y,33,,N
Fort Apache the Bronx,1981,Fort%20Apache%20the%20Bronx,FortApache_ec,"Courtesy of Everett Collection, Inc.",Directed by,Daniel Petrie,http://imdb.com/name/nm0677951/,A South Bronx rooftop<br>The Bronx,40.81744688,-73.90884876,The Bronx,The Bronx,Rooftops,Film,http://imdb.com/title/tt0082402/,South Bronx rooftop,,Y,126,,Y
Ghostbusters,1984,Ghostbusters,Ghostbusters_pf,Courtesy of Photofest,Directed by,Ivan Reitman,http://imdb.com/name/nm0718645/,Columbus Circle<br>Upper West Side<br>Manhattan,40.76812671,-73.98195505,Manhattan,Upper West Side,N/A,Film,http://www.imdb.com/title/tt0087332/,Columbus Circle,,Y,181-183,,Y
Ghostbusters,1984,Ghostbusters,Ghostbusters2_pf,Courtesy of Photofest,Directed by,Ivan Reitman,http://imdb.com/name/nm0718645/,W. 66th St. and Central Park West<br>Upper West Side<br>Manhattan,40.7724,-73.9787,Manhattan,Upper West Side,N/A,Film,http://www.imdb.com/title/tt0087332/,66th Street and Central Park West,poor quality,Y,118,,Y
Godspell,1973,Godspell,Godspell3_pf,Courtesy of Photofest,Directed by,David Greene,http://imdb.com/name/nm0338719/,World Trade Center<br>Lower Manhattan,40.71226431,-74.01123941,Manhattan,Lower Manhattan,N/A,Film,http://www.imdb.com/title/tt0070121/,Roof of WTC,poor quality,Y,72-73,,Y
Godspell,1973,Godspell,Godspell4_pf,Courtesy of Photofest,Directed by,David Greene,http://imdb.com/name/nm0338719/,Times Square<br>Manhattan,40.75931801,-73.98484647,Manhattan,Times Square,N/A,Film,http://www.imdb.com/title/tt0070121/,"Accutron Watch Sign, Times Square",poor quality,Y,72-73,,Y
Godspell,1973,Godspell,Godspell7_pf,Courtesy of Photofest,Directed by,David Greene,http://imdb.com/name/nm0338719/,Lincoln Center<br>Upper West Side<br>Manhattan,40.77230313,-73.98337662,Manhattan,Upper West Side,N/A,Film,http://www.imdb.com/title/tt0070121/,Lincoln Center - Columbus Avenue & 61st Street,poor quality,Y,72-73,,Y
Godspell,1973,Godspell,Godspell8_pf,Courtesy of Photofest,Directed by,David Greene,http://imdb.com/name/nm0338719/,Lincoln Center Plaza<br>Upper West Side<br>Manhattan,40.77335125,-73.98368776,Manhattan,Upper West Side,N/A,Film,http://www.imdb.com/title/tt0070121/,"Empire Diner, Tenth Ave at 22nd Street",poor quality,Y,72-73,,Y
Godspell,1973,Godspell,Godspell2_pf,Courtesy of Photofest,Directed by,David Greene,http://imdb.com/name/nm0338719/,Bethesda Fountain<br>Central Park<br>Manhattan,40.77436686,-73.97078633,Manhattan,Central Park,N/A,Film,http://www.imdb.com/title/tt0070121/,"Betheda Fountain, Central Park",poor quality,Y,72-73,,Y
Godspell,1973,Godspell,Godspell6_pf,Courtesy of Photofest,Directed by,David Greene,http://imdb.com/name/nm0338719/,Ramble<br>Central Park<br>Manhattan,40.77646303,-73.97097945,Manhattan,Central Park,N/A,Film,http://www.imdb.com/title/tt0070121/,"Ramble, Central Park",poor quality,Y,72-73,,Y
Godspell,1973,Godspell,Godspell1_pf,Courtesy of Photofest,Directed by,David Greene,http://imdb.com/name/nm0338719/,Under Triboro Bridge<br>Randalls Island,40.78457084,-73.92944813,Manhattan,Randall's Island,N/A,Film,http://www.imdb.com/title/tt0070121/,"Under Triboro Bridge, Randalls Island",poor quality,Y,72-73,,Y
Godspell,1973,Godspell,Godspell5_pf,Courtesy of Photofest,Directed by,David Greene,http://imdb.com/name/nm0338719/,Soldiers and Sailor's Monument<br>Riverside Park (at 89th St.)<br>Manhattan,40.79230402,-73.97877395,Manhattan,Upper West Side,N/A,Film,http://www.imdb.com/title/tt0070121/,"Soldiers and Sailor's Monument, 89th street Riverside Park",poor quality,Y,72-73,,Y
Godzilla,1988,Godzilla,Godzilla_ec,"Courtesy of Everett Collection, Inc.",Directed by,Roland Emmerich,http://imdb.com/name/nm0000386/,Madison Square Garden<br>Midtown<br>Manhattan,40.75034558,-73.99149835,Manhattan,Midtown,N/A,Film,http://www.imdb.com/title/tt0120685/,Madison Square Garden,Additional image p228-229,Y,180,,Y
Goodfellas,1990,Goodfellas,Goodfellas_pf,Courtesy of Photofest,Directed by,Martin Scorsese,http://imdb.com/name/nm0000217/,24-13 32nd St.<br>Astoria<br>Queens,40.77148249,-73.91521633,Queens,Queens,N/A,Film,http://imdb.com/title/tt0099685/,Queens,slide,Y,25,,Y
Green Card,1990,Green%20Card,Greencard_pf,Courtesy of Photofest,Directed by,Peter Weir,http://imdb.com/name/nm0001837/,W. 76th St & Columbus<br>Upper West Side<br>Manhattan,40.78,-73.9769,Manhattan,Upper West Side,Rooftops,Film,http://www.imdb.com/title/tt0099699/,West 76th Street,We have another photo,Y,230,,Y
Greetings,1968,Greetings,Greetings_pf,Courtesy of Photofest,Directed by,Brian De Palma,http://imdb.com/name/nm0000361/,39 Whitehall St.<br>Lower Manhattan,40.702951,-74.012777,Manhattan,Lower Manhattan,N/A,Film,http://www.imdb.com/title/tt0063036/,39 Whitehall Street,poor quality,Y,71,,Y
Hair,1979,Hair,Hair_pf,Courtesy of Photofest,Directed by,Milos Forman,http://imdb.com/name/nm0001232/,Sheep's Meadow<br>Central Park<br>Manhattan,40.77179937,-73.97488475,Manhattan,Central Park,N/A,Film,http://www.imdb.com/title/tt0079261/,Central Park,,Y,145,,Y
Hannah and Her Sisters,1986,Hannah%20and%20Her%20Sisters,,,Directed by,Woody Allen,http://www.imdb.com/name/nm0000095/,Spring St. and Green St.<br>SoHo<br>Manhattan,40.7238,-74.0004,Manhattan,SoHo,N/A,Film,http://www.imdb.com/title/tt0091167/,SoHo,,Y,155,,N
Hannah and Her Sisters,1986,Hannah%20and%20Her%20Sisters,,,Directed by,Woody Allen,http://www.imdb.com/name/nm0000095/,W. 95th St. and West End Ave.<br>Upper West Side<br>Manhattan,40.7946,-73.9737,Manhattan,Upper West Side,N/A,Film,http://www.imdb.com/title/tt0091167/,95th Street and West End Avenue,,N,,,N
Hannah and Her Sisters,1986,Hannah%20and%20Her%20Sisters,,,Directed by,Woody Allen,http://www.imdb.com/name/nm0000095/,Metro Theatre (2626 Broadway)<br>Upper West Side<br>Manhattan,40.796766,-73.969947,Manhattan,Upper West Side,N/A,Film,http://www.imdb.com/title/tt0091167/,"Metro Theatre, 101st and Broadway",,Y,241,,N
Heights,2005,Heights,Heights_ec,"Courtesy of Everett Collection, Inc.",Directed by,Chris Terrio,http://imdb.com/name/nm0006516/,Municipal Building<br>1 Centre St.<br>Lower Manhattan,40.71302062,-74.00337517,Manhattan,Lower Manhattan,Rooftops,Film,http://imdb.com/title/tt0382073/,Municipal Building,,Y,232,,Y
Hitch,2005,Hitch,,,Directed by,Andy Tennant,http://imdb.com/name/nm0855035/,Spring St. and Greene St.<br>SoHo<br>Manhattan,40.7238,-74.0004,Manhattan,SoHo,N/A,Film,http://www.imdb.com/title/tt0386588/,"Greene and Spring Streets, SoHo",,Y,226,,N
Hudson Hawk,1991,Hudson%20Hawk,HudsonHawk_pf,Courtesy of Photofest,Directed by,Michael Lehmann,http://imdb.com/name/nm0499724/,Brooklyn Bridge,40.70310659,-73.99318814,Brooklyn,Brooklyn,N/A,Film,http://www.imdb.com/title/tt0102070/,Brooklyn Bridge ramp on Brooklyn side,,Y,131,,Y
I Like It Like That,1994,I%20Like%20It%20Like%20That,ILikeitLikeThat_pf,Courtesy of Photofest,Directed by,Darnell Martin,http://imdb.com/name/nm0552140/,170th St. in Morrisania<br>The Bronx,40.83870044,-73.91373038,The Bronx,The Bronx,The Subway,Film,http://www.imdb.com/title/tt0110091/,170th Street in Morrisania,Additional Image p193,Y,129,,Y
I Shot Andy Warhol,1996,I%20Shot%20Andy%20Warhol,IShotAndyWarhol_pf,Courtesy of Photofest,Directed by,Mary Harron,http://www.imdb.com/name/nm0366004/,W. 20th St. <br>Chelsea<br>Manhattan,40.74053466,-73.99303257,Manhattan,Chelsea,N/A,Film,http://www.imdb.com/title/tt0116594/,West 20th bet Fifth and Sixth Ave,,Y,248,,Y
Inside Man,2006,Inside%20Man,,,Directed by,Spike Lee,http://www.imdb.com/name/nm0000490/,William St. and Wall St.<br>Lower Manhattan,40.7064,-74.0095,Manhattan,Lower Manhattan,N/A,Film,http://imdb.com/title/tt0454848/,William Street toward Wall Street,,Y,249,,N
It Could Happen to You,1994,It%20Could%20Happen%20to%20You,ItCouldHappentoYou2_ec,"Courtesy of Everett Collection, Inc.",Directed by,Andrew Bergman,http://imdb.com/name/nm0000921/,W. Broadway and N. Moore St.<br>TriBeCa<br>Manhattan,40.7197,-74.0059,Manhattan,TriBeCa,N/A,Film,http://www.imdb.com/title/tt0110167/,West Broadway and North Moore Street,There is also a diner photo,Y,191,,Y
Jeremy,1973,Jeremy,Jeremy_ec,"Courtesy of Everett Collection, Inc.",Directed by,Arthur Barron,http://imdb.com/name/nm0057634/,Central Park<br>Manhattan,40.77474873,-73.97250831,Manhattan,Central Park,N/A,Film,http://www.imdb.com/title/tt0070238/,Central Park,,Y,108,,Y
Jumpin' at the Boneyard,1992,Jumpin%27%20at%20the%20Boneyard,,,Directed by,Jeff Stanzler,http://imdb.com/name/nm0822863/,Burned-out blocks in the Bronx,40.83438208,-73.91993165,The Bronx,The Bronx,N/A,Film,http://imdb.com/title/tt0102174/,burned-out blocks in the Bronx,,Y,128, ,N
Jungle Fever,1991,Jungle%20Fever,JungleFever_pf,Courtesy of Photofest,Directed by,Spike Lee,http://www.imdb.com/name/nm0000490/,Bensonhurst<br>Brooklyn,40.6019,-73.9938,Brooklyn,Brooklyn,New York Moments,Film,http://www.imdb.com/title/tt0102175/,Bensonhurst,Not sure if this the correct photo,Y,203,,Y
Jungle Fever,1991,Jungle%20Fever,JungleFever2_pf,Courtesy of Photofest,Directed by,Spike Lee,http://www.imdb.com/name/nm0000490/,Strivers' Row<br>Harlem<br>Manhattan,40.81803961,-73.94421637,Manhattan,Harlem,N/A,Film,,"Strivers' Row, 138th st bet Powell and Douglass blvds",slide,N,,,Y
Kids,1995,Kids,,,Directed by,Larry Clark,http://imdb.com/name/nm0164187/,Washington Square Park<br>West Village<br>Manhattan,40.7310719,-73.99686277,Manhattan,West Village,N/A,Film,http://www.imdb.com/title/tt0113540/,Washington Square Park,,Y,79,,N
Killer's Kiss,1957,Killer%27s%20Kiss,KillersKiss_ec,Courtesy of Photofest,Directed by,Stanley Kubrick,http://imdb.com/name/nm0000040/,Rooftops<br>Lower Manhattan,40.70821425,-74.01365876,Manhattan,Lower Manhattan,N/A,Film,http://imdb.com/title/tt0048254/,Rooftops of lower Manhattan,,Y,44,,Y
King Kong,1976,King%20Kong,KingKong_ec,"Courtesy of Everett Collection, Inc.",Directed by,John Guillermin,http://imdb.com/name/nm0347086/,World Trade Center<br>Lower Manhattan,40.71254894,-74.01477993,Manhattan,Lower Manhattan,N/A,Film,http://www.imdb.com/title/tt0074751/,World Trade Center,,Y,90-91,,Y
Kissing Jessica Stein,2001,Kissing%20Jessica%20Stein,kissing_jessica_st4_pf,Courtesy of Photofest,Directed by,Charles Herman-Wurmfeld,http://imdb.com/name/nm0379237/,E. 6th St.<br>East Village<br>Manhattan,40.7255,-73.984,Manhattan,East Village,N/A,Film,http://www.imdb.com/title/tt0264761/,East 6th Street,,Y,210,,Y
Klute,1971,Klute,Klute_pf,Courtesy of Photofest,Directed by,Alan J. Pakula,http://imdb.com/name/nm0001587/,World Trade Center<br>Lower Manhattan,40.71126402,-74.01129305,Manhattan,Lower Manhattan,N/A,Film,http://www.imdb.com/title/tt0067309/,World Trade Center,,Y,89,,N
Klute,1971,Klute,Klute_pf,Courtesy of Photofest,Directed by,Alan J. Pakula,http://imdb.com/name/nm0001587/,Hell's Kitchen<br>Ninth Ave.<br>Manhattan,40.76160968,-73.99031281,Manhattan,Midtown,N/A,Film,http://www.imdb.com/title/tt0067309/,Ninth Avenue in the 40s,,Y,104,,N
Klute,1971,Klute,Klute_pf,Courtesy of Photofest,Directed by,Alan J. Pakula,http://imdb.com/name/nm0001587/,123rd St.<br>Harlem<br>Manhattan,40.80091344,-73.93336952,Manhattan,Harlem,N/A,Film,http://www.imdb.com/title/tt0067309/,123rd Street near First Avenue,Additional Image on p88 of the book,Y,62,,Y
Kojak,1973-1978,Kojak,Kojak_pf,Courtesy of Photofest,Created by,"Abby Mann,(more)","http://imdb.com/name/nm0542631/,http://imdb.com/title/tt0069599/fullcredits#writers",60 Baxter St.<br>Lower Manhattan,40.715847,-74.000547,Manhattan,Lower Manhattan,N/A,TV,http://imdb.com/title/tt0069599/,Lincoln Center,Unusable need rescan,Y,257,,Y
Kojak,1973-1978,Kojak,Kojak2_pf,Courtesy of Photofest,Created by,"Abby Mann,(more)","http://imdb.com/name/nm0542631/,http://imdb.com/title/tt0069599/fullcredits#writers",Lincoln Center<br>Upper West Side<br>Manhattan,40.77240875,-73.98376286,Manhattan,Upper West Side,N/A,TV,http://imdb.com/title/tt0069599/,Lincoln Center,Unusable need rescan,Y,257,,Y
Kramer vs. Kramer,1979,Kramer%20vs%2E%20Kramer,Kramervskramer_pf,Courtesy of Photofest,Directed by,Robert Benton,http://imdb.com/name/nm0000914/,P.S. 6 (45 E. 81st St.)<br>Upper East Side<br>Manhattan,40.777554,-73.960694,Manhattan,Upper East Side,N/A,Film,http://www.imdb.com/title/tt0079417/,P.S. 6 - Madison Avenue and 81st street,,Y,157,,Y
Law & Order,1988- Today,Law%20%26%20Order,LawandOrder1_pf,Courtesy of Photofest,Created by,"Dick Wolf,(more)","http://imdb.com/name/nm0937725/,http://imdb.com/title/tt0098844/fullcredits#writers",Worth St.<br>Lower Manhattan,40.7171,-74.0063,Manhattan,Lower Manhattan,N/A,TV,http://imdb.com/title/tt0098844/,"2 locations:
- Central Park
- Worth Street",,Y,258-259,,Y
Little Fugitive,1953,Little%20Fugitive,LittleFugative_pf,Courtesy of Photofest,Directed by,"Morris Engel,Ruth Orkin,(more)","http://imdb.com/name/nm0257129/,http://imdb.com/name/nm0257129/,http://imdb.com/title/tt0046004/fullcredits#directors",Coney Island<br>Brooklyn,40.57463602,-73.98080707,Brooklyn,Brooklyn,N/A,Film,http://imdb.com/title/tt0046004/,Coney Island,,Y,45,,Y
Little Manhattan,2005,Little%20Manhattan,LittleManhattan_ec,"Courtesy of Everett Collection, Inc.",Directed by,Mark Levin,http://imdb.com/name/nm0505662/,Christopher St. Station<br>Sheridan Square<br>Manhattan,40.73360844,-74.00279582,Manhattan,West Village,The Subway,Film,http://www.imdb.com/title/tt0412922/,Sheridan Square/Christopher Street Station,,Y,193,,Y
LUV,1967,LUV,Luv_pf,Courtesy of Photofest,Directed by,Clive Donner,http://imdb.com/name/nm0232795/,Manhattan Bridge<br>Brooklyn,40.70507488,-73.98961008,Brooklyn,Brooklyn,N/A,Film,http://www.imdb.com/title/tt0061927/,Manhattan Bridge,poor quality,Y,54,,Y
Mad Hot Ballroom,2005,Mad%20Hot%20Ballroom,MadHotBallroom_ec,"Courtesy of Everett Collection, Inc.",Directed by,Marilyn Agrelo,http://imdb.com/name/nm1802009/,Washington Heights<br>Harlem<br>Manhattan,40.83228774,-73.94633532,Manhattan,Harlem,N/A,Film,http://www.imdb.com/title/tt0438205/,Washington Heights,,Y,245,,Y
Malcolm X,1992,Malcolm%20X,MalcolmX_pf,Courtesy of Photofest,Directed by,Spike Lee,http://www.imdb.com/name/nm0000490/,"Adjacent to Apollo Theater,<br>W. 125th St. between 7th and 8th Aves<br>Harlem, Manhattan",40.810038,-73.95045,Manhattan,Harlem,N/A,Film,http://www.imdb.com/title/tt0104797/,"Adjacent to Apollo Theater, 125th Street bet 7th and 8th Aves",,Y,102-103,,Y
Man Push Cart,2005,Man%20Push%20Cart,,,Directed by,Ramin Bahrani,http://imdb.com/name/nm1023919/,Midtown<br>Manhattan,40.7552,-73.9733,Manhattan,Midtown,N/A,Film,http://imdb.com/title/tt0464105/,N/A,,Y,245,N,N
Manhattan,1979,Manhattan,Manhattan_pf,Courtesy of Photofest,Directed by,Woody Allen,http://www.imdb.com/name/nm0000095/,MoMA<br>W. 53rd St.<br>Manhattan,40.76113835,-73.97720218,Manhattan,Midtown,N/A,Film,http://www.imdb.com/title/tt0079522/,"MoMA, 53rd St bet 5th and 6th Aves",Additional image p116,Y,123,,Y
Marty,1955,Marty,Marty_pf,Courtesy of Photofest,Directed by,Delbert Mann,http://imdb.com/name/nm0542720/,The Bronx,40.839742,-73.880923,The Bronx,The Bronx,N/A,Film,http://imdb.com/title/tt0048356/,Bronx store,,Y,40,,Y
McCloud,1970-1977,McCloud,Mccloud_ec,"Courtesy of Everett Collection, Inc.",Directed by,"Lou Antonio,Jack Arnold,(more)","http://imdb.com/name/nm0031398/,http://imdb.com/name/nm0000791/,http://imdb.com/title/tt0065317/fullcredits#writers",Manhattan,40.75728631,-74.00074124,Manhattan,Midtown,N/A,TV,http://imdb.com/title/tt0065317/,N/A,,Y,256,N,Y
Mean Streets,1973,Mean%20Streets,,Courtesy of Photofest,Directed by,Martin Scorsese,http://imdb.com/name/nm0000217/,Hester St. and Baxter St.<br>Little Italy<br>Manhattan,40.7185,-73.9988,Manhattan,Lower Manhattan,N/A,Film,http://www.imdb.com/title/tt0070379/,Hester and Baxster Streets,,Y,186,,N
Men in Black,1997,Men%20in%20Black,MenInBlack_pf,Courtesy of Photofest,Directed by,Barry Sonnenfeld,http://imdb.com/name/nm0001756/,Battery Park<br>Lower Manhattan,40.70435915,-74.01472628,Manhattan,Lower Manhattan,N/A,Film,http://www.imdb.com/title/tt0119654/,Battery Park,,Y,132,,N
Men in Black,1997,Men%20in%20Black,MenInBlack_pf,Courtesy of Photofest,Directed by,Barry Sonnenfeld,http://imdb.com/name/nm0001756/,MacDougal St.<br>SoHo<br>Manhattan,40.73164913,-73.99913192,Manhattan,SoHo,N/A,Film,http://www.imdb.com/title/tt0119654/,"MacDougle Street, SoHo", JAMES CROSSED OUT,Y,132,,N
Men in Black,1997,Men%20in%20Black,MenInBlack_pf,Courtesy of Photofest,Directed by,Barry Sonnenfeld,http://imdb.com/name/nm0001756/,Grand Central Station<br>87 E. 42nd St.<br>Manhattan,40.752412,-73.977979,Manhattan,Midtown,N/A,Film,http://www.imdb.com/title/tt0119654/,Grand Central Station - 42nd Street, JAMES CROSSED OUT,Y,132,,N
Men in Black,1997,Men%20in%20Black,MenInBlack_pf,Courtesy of Photofest,Directed by,Barry Sonnenfeld,http://imdb.com/name/nm0001756/,Guggenheim Museum<br>E. 88th St. and Fifth Ave.<br>Manhattan,40.78257241,-73.95934939,Manhattan,Upper East Side,N/A,Film,http://www.imdb.com/title/tt0119654/,"Guggenheim Museum, 88th and Fifth",,Y,207,,Y
Midnight Cowboy,1969,Midnight%20Cowboy,MidnightCowboy1_ec,"Courtesy of Everett Collection, Inc.",Directed by,John Schlesinger,http://imdb.com/name/nm0772259/,1414 Broadway<br>Midtown<br>Manhattan,40.753767,-73.986866,Manhattan,Midtown,N/A,Film,http://www.imdb.com/title/tt0064665/,39th Street and Broadway,Additional Image on p58-59 of the book,Y,235,,Y
Midnight Cowboy,1968,Midnight%20Cowboy,MidnightCowboy2_ec,"Courtesy of Everett Collection, Inc.",Directed by,John Schlesinger,http://imdb.com/name/nm0772259/,Times Square<br>Manhattan,40.75819652,-73.98512006,Manhattan,Times Square,N/A,Film,http://www.imdb.com/title/tt0064665/,Times Square,Additional Image on p96,Y,234,,Y
Mirage,1965,Mirage,Mirage_pf,Courtesy of Photofest,Directed by,Edward Dmytryk,http://imdb.com/name/nm0229424/,Fifth Ave. and 66th St.<br>Central Park<br>Manhattan,40.7687,-73.9698,Manhattan,Central Park,N/A,Film,http://imdb.com/title/tt0059448/,Central Park,,Y,51,,Y
Mo' Better Blues,1990,Mo%27%20Better%20Blues,MoBetterBlues2_pf,Courtesy of Photofest,Directed by,Spike Lee,http://www.imdb.com/name/nm0000490/,Brooklyn Bridge,40.70645752,-73.99727583,Brooklyn,Brooklyn,N/A,Film,http://www.imdb.com/title/tt0100168/,Brooklyn Bridge,Image p225 not of brooklyn bridge,Y,,,Y
My Dinner with André,1991,My%20Dinner%20with%20Andr%E9,MyDinnerWithAndre_pf,Courtesy of Photofest,Directed by,Louis Malle,http://imdb.com/name/nm0001501/,Subway ,40.71860728,-73.98836017,Manhattan,Lower East Side,The Subway,Film,http://imdb.com/title/tt0082783/,Subway ,needs to be reversed,Y,158,,Y
New Jack City,1991,New%20Jack%20City,,,Directed by,Mario Van Peebles,http://imdb.com/name/nm0005522/,Grant's Tomb<br>Harlem<br>Manhattan,40.8127049,-73.96310449,Manhattan,Harlem,N/A,Film,http://www.imdb.com/title/tt0102526/,Harlem,,N,,,N
"Next Stop, Greenwich Village",1975,Next%20Stop%2C%20Greenwich%20Village,NextStopGreenwich_ec,"Courtesy of Everett Collection, Inc.",Directed by,Paul Mazursky,http://imdb.com/name/nm0005196/,MacDougal St.<br>West Village<br>Manhattan,40.72936455,-74.00103629,Manhattan,West Village,N/A,Film,http://imdb.com/title/tt0074963/,MacDougal Street,,Y, 76-77,,Y
Nighthawks,1981,Nighthawks,Nighthawks_1981_1_pf,Courtesy of Photofest,Directed by,Bruce Malmuth,http://imdb.com/name/nm0540330/,Roosevelt Island Tramway<br>Manhattan,40.75835906,-73.95694613,Manhattan,Roosevelt Island,N/A,Film,http://www.imdb.com/title/tt0082817/,Roosevelt Island Tramway,,Y,124,,Y
No Way to Treat a Lady,1968,No%20Way%20to%20Treat%20a%20Lady,NoWaytoTreataLady2_pf,Courtesy of Photofest,Directed by,Jack Smight,http://imdb.com/name/nm0806915/,New York City Bus<br>Manhattan,40.72268923,-73.98893952,Manhattan,Lower East Side,N/A,Film,http://www.imdb.com/title/tt0063356/,44th St bet. 8th Avenue and Broadway,Image p94 not of 8th Ave,Y,,,Y
No Way to Treat a Lady,1968,No%20Way%20to%20Treat%20a%20Lady,NoWaytoTreataLady_pf,Courtesy of Photofest,Directed by,Jack Smight,http://imdb.com/name/nm0806915/,Carmines<br>200 W. 44th St. <br>Manhattan,40.75736758,-73.98670793,Manhattan,Times Square,N/A,Film,http://www.imdb.com/title/tt0063356/,44th St bet. 8th Avenue and Broadway,Image p94 not of 8th Ave,Y,,,Y
North by Northwest,1959,North%20by%20Northwest,,,Directed by,Alfred Hitchcock,http://imdb.com/name/nm0000033/,Grand Central Terminal<br>Midtown<br>Manhattan,40.75310896,-73.9769876,Manhattan,Midtown,N/A,Film,http://imdb.com/title/tt0053125/,Grand Central Station,,Y,42,,N
On the Town,1949,On%20the%20Town,OntheTown_pf,Courtesy of Photofest,Directed by,"Stanley Donen,Gene Kelly","http://imdb.com/name/nm0002045/,http://imdb.com/name/nm0000037/",Little Italy<br>Manhattan,40.71813564,-73.99790883,Manhattan,Lower East Side,N/A,Film,http://imdb.com/title/tt0041716/,"3 locations:
- Upper Bay
- Little Italy 
- Skating rink at Rockefeller Center",,Y,36-37,,Y
On the Waterfront,1954,On%20the%20Waterfront,OnTheWaterfront_pf,Courtesy of Photofest,Directed by,Elia Kazan,http://imdb.com/name/nm0001415/,"Hoboken, New Jersey<br>View of Manhattan",40.74712691,-74.02497768,Manhattan,New York Harbor,N/A,Film,http://imdb.com/title/tt0047296/,"Hoboken, New Jersey",,Y,40-41,,Y
One Fine Day,1996,One%20Fine%20Day,,,Directed by,Michael Hoffman,http://imdb.com/name/nm0001355/,Carnegie Deli<br>Seventh Ave. and W. 55th St.<br>Manhattan,40.7642,-73.981,Manhattan,Midtown,N/A,Film,http://www.imdb.com/title/tt0117247/,Carnegie Deli - 7th Avenue at 55th Street,,Y,244,,N
One Fine Day,1996,One%20Fine%20Day,,,Directed by,Michael Hoffman,http://imdb.com/name/nm0001355/,Near Bethesda Fountain<br>Central Park<br>Manhattan,40.77426124,-73.97052348,Manhattan,Central Park,N/A,Film,http://www.imdb.com/title/tt0117247/,Central Park,,Y,147,,N
Other People's Money,1991,Other%20People%27s%20Money,,,Directed by,Norman Jewison,http://imdb.com/name/nm0422484/,World Trade Center<br>Lower Manhattan,40.71292303,-74.01314914,Manhattan,Lower Manhattan,N/A,Film,http://imdb.com/title/tt0102609/,World Trade Center,,Y,92,,N
Pieces of April,2003,Pieces%20of%20April,PiecesofApril_ec,"Courtesy of Everett Collection, Inc.",Directed by,Peter Hedges,http://imdb.com/name/nm0373282/,Lower East Side<br>Manhattan,40.72057,-73.985953,Manhattan,Lower East Side,N/A,Film,http://www.imdb.com/title/tt0311648/,Lower East Side,,N,,,Y
Plaza Suite,1971,Plaza%20Suite,PlazaSuite_pf,Courtesy of Photofest,Directed by,Arthur Hiller,http://imdb.com/name/nm0002137/,Rockefeller Center<br>600 Fifth Ave.<br>Manhattan,40.757603,-73.978101,Manhattan,Midtown,N/A,Film,http://www.imdb.com/title/tt0067589/,Rockefeller Center,,N,,,Y
Prime,2005,Prime,,,Directed by,Ben Younger,http://imdb.com/name/nm0950226/,Dean and Deluca<br>SoHo<br>Manhattan,40.725367,-73.999702,Manhattan,SoHo,N/A,Film,http://www.imdb.com/title/tt0387514/,"SoHo, Dean and Deluca",,Y,155,,N
Ragtime,1981,Ragtime,Ragtime2_pf,Courtesy of Photofest,Directed by,Milos Forman,http://imdb.com/name/nm0001232/,E. 11th St. between Ave. A and Ave. B<br>East Village<br>Manhattan,40.72795799,-73.9806515,Manhattan,East Village,Historic Recreations,Film,http://www.imdb.com/title/tt0082970/,11th Street bet Avenue A and Avenue B,,Y,150,,Y
Report to the Commissioner,1975,Report%20to%20the%20Commissioner,ReporttotheComm4_ec,"Courtesy of Everett Collection, Inc.",Directed by,Milton Katselas,http://imdb.com/name/nm0441501/,Winter Garden Theater<br>1634 Broadway<br>Manhattan,40.761528,-73.983802,Manhattan,Midtown,Chases,Film,http://www.imdb.com/title/tt0073620/,"Winter Garden Theater, Saks Fifth Avenue",,Y,86-87,,Y
Requiem for a Dream,2000,Requiem%20for%20a%20Dream,Requiemforadream2_pf,Courtesy of Photofest,Directed by,Darren Aronofsky,http://imdb.com/name/nm0004716/,Coney Island Boardwalk<br>Brooklyn,40.57223197,-73.98395598,Brooklyn,Brooklyn,N/A,Film,http://www.imdb.com/title/tt0180093/,Coney Island/Brighton Beach Boardwalk,poor quality,Y,134-135,,Y
Rosemary's Baby,1968,Rosemary%27s%20Baby,RosemarysBaby_ec,"Courtesy of Everett Collection, Inc.",Directed by,Roman Polanski,http://imdb.com/name/nm0000591/,Fifth Ave. and E. 62nd St.<br>Upper East Side<br>Manhattan,40.7661,-73.9717,Manhattan,Upper East Side,N/A,Film,http://www.imdb.com/title/tt0063522/,Phone Booth: Fifth Ave and 62nd Street,,Y,57,,Y
Rosemary's Baby,1968,Rosemary%27s%20Baby,RosemarysBaby3_pf,Courtesy of Photofest,Directed by,Roman Polanski,http://imdb.com/name/nm0000591/,"The Dakota<br>72nd St. and Central Park West<br>Manhattan
",40.77639,-73.976069,Manhattan,Upper West Side,N/A,Film,http://www.imdb.com/title/tt0063522/,"The Dakota, 72nd Street and Central Park West",,Y,69,,Y
Rosemary's Baby,1968,Rosemary%27s%20Baby,RosemarysBaby2_pf,Courtesy of Photofest,Directed by,Roman Polanski,http://imdb.com/name/nm0000591/,"The Dakota<br>72nd St. and Central Park West<br>Manhattan
",40.77656053,-73.97615075,Manhattan,Upper West Side,N/A,Film,http://www.imdb.com/title/tt0063522/,"The Dakota, 72nd Street and Central Park West",,Y,246,,Y
Saturday Night Fever,1977,Saturday%20Night%20Fever,SaturdayNightFever2_pf,Courtesy of Photofest,Directed by,John Badham,http://imdb.com/name/nm0000824/,4th Ave. and 86th St.<br>Bay Ridge<br>Brooklyn,40.6228,-74.0284,Brooklyn,Brooklyn,The Subway,Film,http://www.imdb.com/title/tt0076666/,"Fourth Avenue and 86th Street, Bay Ridge",Additional image p192,Y,115,,Y
Saturday Night Fever,1977,Saturday%20Night%20Fever,SaturdayNightFever_pf,Courtesy of Photofest,Directed by,John Badham,http://imdb.com/name/nm0000824/,Subway Car<br>Brooklyn,40.6260702,-73.9970237,Brooklyn,Brooklyn,The Subway,Film,http://www.imdb.com/title/tt0076666/,"Fourth Avenue and 86th Street, Bay Ridge",,Y,115,,Y
Searching for Bobby Fischer,1993,Searching%20for%20Bobby%20Fischer,SearchingforBobby_pf,Courtesy of Photofest,Directed by,Steven Zaillian,http://imdb.com/name/nm0001873/,Washington Square Park<br>West Village<br>Manhattan,40.7310719,-73.99928749,Manhattan,West Village,N/A,Film,http://www.imdb.com/title/tt0108065/,Washington Square Park,,Y,79,,Y
Serpico,1973,Serpico,Serpico_pf,Courtesy of Photofest,Directed by,Sidney Lumet,http://imdb.com/name/nm0001486/,"Williamsburg Tenaments<br>Brooklyn
",40.70757988,-73.96520197,Brooklyn,Brooklyn,N/A,Film,http://www.imdb.com/title/tt0070666/,Williamsburgh teNaments,poor quality,Y,60,,Y
Sesame Street,1969-today,Sesame%20Street,SesameStreet_pf,Courtesy of Photofest,Created by,"Joan Ganz Cooney,(more)","http://imdb.com/name/nm0177760/,http://www.imdb.com/title/tt0063951/fullcredits#writers",Kaufman Astoria Studios<br>Astoria<br>Queens,40.757599,-73.923671,Queens,Queens,N/A,TV,http://www.imdb.com/title/tt0063951/,Kaufman Astoria Studios,poor quality,Y,265,,Y
Sex and the City,1998-2004,Sex%20and%20the%20City,SexandtheCity3_ec,"Courtesy of Everett Collection, Inc.",Created by,"Darren Star,(more)","http://imdb.com/name/nm0823015/,http://www.imdb.com/title/tt0159206/fullcredits#writers",Magnolia Bakery<br>401 Bleecker St.<br>Manhattan,40.73580345,-74.00501668,Manhattan,West Village,N/A,TV,http://www.imdb.com/title/tt0159206/,Magnolia Bakery: Bleeker Street,We have another photo,Y,267,,Y
Shadows,1959,Shadows,Shadows_ec,"Courtesy of Everett Collection, Inc.",Directed by,John Cassavetes,http://imdb.com/name/nm0001023/,MoMA<br>W. 53rd St.<br>Manhattan,40.7608458,-73.97647262,Manhattan,Midtown,N/A,Film,http://imdb.com/title/tt0053270/,N/A,,Y,44,N,Y
Shaft,1971,Shaft,,,Directed by,Gordon Parks,http://imdb.com/name/nm0662953/,Seventh Ave. and W. 42nd St.<br>Times Square<br>Manhattan,40.756,-73.987,Manhattan,Times Square,N/A,Film,http://www.imdb.com/title/tt0067741/,7th avenue at 42nd Street,,Y,106,,N
Shaft,2000,Shaft,Shaft2000_pf,Courtesy of Photofest,Directed by,John Singleton,http://imdb.com/name/nm0005436/,New York County Courthouse<br>60 Centre St.<br>Lower Manhattan,40.714451,-74.002329,Manhattan,Lower Manhattan,N/A,Film,http://www.imdb.com/title/tt0162650/,New York County Courthouse: 60 Centre St,slide,Y,214,,Y
She's the One,1996,She%27s%20the%20One,Shestheone_pf,Courtesy of Photofest,Directed by,Edward Burns,http://imdb.com/name/nm0122653/,McHales Pub<br>W. 46th and Eighth Ave.<br>Manhattan,40.75974059,-73.98754478,Manhattan,Midtown,N/A,Film,http://www.imdb.com/title/tt0117628/,"McHales Pub, 46th and Columbus",poor quality,Y,243,,Y
Single White Female,1992,Single%20White%20Female,SingleWhiteFemale_pf,Courtesy of Photofest,Directed by,Barbet Schroeder,http://imdb.com/name/nm0775447/,Ansonia Hotel<br>2109 Broadway<br>Manhattan,40.779956,-73.981881,Manhattan,Upper West Side,New York Landmarks,Film,http://www.imdb.com/title/tt0105414/,Ansonia Hotel - 30th Street bet 7th and 8th Aves,,Y,170,,Y
Six Degrees of Separation,1993,Six%20Degrees%20of%20Separation,SixDegreesofSep_pf,Courtesy of Photofest,Directed by,Fred Schepisi,http://imdb.com/name/nm0770961/,Central Park<br>Manhattan,40.77150687,-73.9690429,Manhattan,Central Park,N/A,Film,http://www.imdb.com/title/tt0108149/,NEAR Fifth Ave & 70th St. in Central Park,,Y,146,,Y
Six Degrees of Separation,1993,Six%20Degrees%20of%20Separation,SixDegreesofSep_pf,Courtesy of Photofest,Directed by,Fred Schepisi,http://imdb.com/name/nm0770961/,Metropolitan Museum of Art<br>Fifth Ave. at 82nd St.,40.77907909,-73.96261096,Manhattan,Upper East Side,New York Landmarks,Film,http://www.imdb.com/title/tt0108149/,Metropolitan Museum of Art - Fifth Avenue at 82nd St,Additional Image on p5 of the book,Y,168,,N
Sleepers,1996,Sleepers,Sleepers3_pf,Courtesy of Photofest,Directed by,Barry Levinson,http://imdb.com/name/nm0001469/,"W. 47th St., near Pier 87<br>Manhattan",40.76461637,-73.99743676,Manhattan,Midtown,Historic Recreations,Film,http://www.imdb.com/title/tt0117665/,"West 47th Street, near Pier 87",We have another photo,Y,151,,Y
Sleepers,1996,Sleepers,Sleepers_pf,Courtesy of Photofest,Directed by,Barry Levinson,http://imdb.com/name/nm0001469/,"W. 47th St., near Pier 87<br>Manhattan",40.76474639,-73.99790883,Manhattan,Midtown,Historic Recreations,Film,http://www.imdb.com/title/tt0117665/,"West 47th Street, near Pier 87",We have another photo,Y,151,,Y
Smithereens,1982,Smithereens,Smithereens_ec,"Courtesy of Everett Collection, Inc.",Directed by,Susan Seidelman,http://imdb.com/name/nm0782384/,Lower East Side<br>Manhattan,40.71854,-73.98918,Manhattan,Lower East Side,N/A,Film,http://www.imdb.com/title/tt0084698/,Lower East Side,,Y,189,,Y
Smoke,1995,Smoke,Smoke_ec,"Courtesy of Everett Collection, Inc.",Directed by,Wayne Wang,http://imdb.com/name/nm0911061/,Prospect Park and 16th St.<br>Windsor Terrace<br>Brooklyn,40.65725844,-73.97461116,Brooklyn,Brooklyn,N/A,Film,http://www.imdb.com/title/tt0114478/,Prospect Park West and 16th Street in Windsor Terrace,,Y,176,,Y
Sophie's Choice,1982,Sophie%27s%20Choice,SophiesChoice_pf,Courtesy of Photofest,Directed by,Alan J. Pakula,http://imdb.com/name/nm0001587/,101 Rugby Rd.<br>Brooklyn,40.647334,-73.966373,Brooklyn,Brooklyn,N/A,Film,http://www.imdb.com/title/tt0084707/,"101 Rugby Road, Brooklyn, NY",poor quality,Y,179,,Y
Spider-Man,2002,Spider%2DMan,Spiderman2_pf,Courtesy of Photofest,Directed by,Sam Raimi,http://www.imdb.com/name/nm0000600/,Midtown<br>Manhattan,40.7525888,-73.97975564,Manhattan,Midtown,N/A,Film,http://www.imdb.com/title/tt0145487/,,,Y,194,N,Y
Spider-Man,2002,Spider%2DMan,Spiderman3_pf,Courtesy of Photofest,Directed by,Sam Raimi,http://www.imdb.com/name/nm0000600/,Midtown<br>Manhattan,40.75668492,-73.97855401,Manhattan,Midtown,N/A,Film,http://www.imdb.com/title/tt0145487/,,,Y,194,N,Y
Spider-Man,2002,Spider%2DMan,Spiderman4_pf,Courtesy of Photofest,Directed by,Sam Raimi,http://www.imdb.com/name/nm0000600/,Sunnyside<br>Queens,40.74823233,-73.9139986,Queens,Queens,N/A,Film,http://www.imdb.com/title/tt0145487/,Sunnyside,,Y,194,,Y
Splash,1984,Splash,Splash_pf,Courtesy of Photofest,Directed by,Ron Howard,http://imdb.com/name/nm0000165/,Pier 17<br>Manhattan,40.70468448,-74.00207162,Manhattan,Lower Manhattan,N/A,Film,http://www.imdb.com/title/tt0088161/,Pier 17,poor quality,Y,131,,Y
State of Grace,1990,State%20of%20Grace,StateofGrace_ec,"Courtesy of Everett Collection, Inc.",Directed by,Phil Joanou,http://imdb.com/name/nm0423333/,Hell's Kitchen<br>Manhattan,40.76037446,-73.99125695,Manhattan,Upper West Side,N/A,Film,http://imdb.com/title/tt0100685/,Hell's Kitchen,,Y,141,,Y
Sugar Hill,1994,Sugar%20Hill,,,Directed by,Leon Ichaso,http://imdb.com/name/nm0406687/,Edgecomb Ave.<br>Harlem<br>Manhattan,40.82943024,-73.93964052,Manhattan,Harlem,N/A,Film,http://www.imdb.com/title/tt0107079/,"Edgecomb Avenue, Harlem",,Y,100-101,,N
Summer of Sam,1999,Summer%20of%20Sam,SummerofSam_pf,Courtesy of Photofest,Directed by,Spike Lee,http://www.imdb.com/name/nm0000490/,"CBGB's <br>315 Bowery (at Bleecker)<br>East Village, Manhattan",40.725034,-73.992067,Manhattan,SoHo,N/A,Film,http://www.imdb.com/title/tt0162677/,CBGB's 315 Bowery,,Y,188,,Y
Sweet Home Alabama,2002,Sweet%20Home%20Alabama,SweetHomeAlabama_ec,"Courtesy of Everett Collection, Inc.",Directed by,Andy Tennant,http://imdb.com/name/nm0855035/,Tiffany & Co.<br>727 Fifth Ave.<br>Manhattan,40.76279612,-73.97387624,Manhattan,Midtown,N/A,Film,http://www.imdb.com/title/tt0256415/,Tiffany & Co. - 727 Fifth Avenue at 57th Street,,Y,212,,Y
Sweet November,1968,Sweet%20November,,,Directed by,Robert Ellis Miller,http://imdb.com/name/nm0589228/,Remsen St. and Montague Terrace<br>Brooklyn Heights<br>Brooklyn,40.695,-73.9977,Brooklyn,Brooklyn,N/A,Film,http://www.imdb.com/title/tt0063661/,Brooklyn Height Promenade: Remsen St. and Montague Terrace,,N,,,N
Sweet Smell of Success,1957,Sweet%20Smell%20of%20Success,SweetSmellofSuccess_pf,Courtesy of Photofest,Directed by,Alexandre Mackenrick,http://imdb.com/name/nm0533241/,Manhattan ,40.75779831,-73.97556603,Manhattan,Midtown,N/A,Film,http://imdb.com/title/tt0051036/,Manhattan ,,Y,43,N,Y
Taxi Driver,1976,Taxi%20Driver,TaxiDriver_pf,Courtesy of Photofest,Directed by,Martin Scorsese,http://imdb.com/name/nm0000217/,E. 12th St. and Third Ave.<br>East Village<br>Manhattan,40.732,-73.9882,Manhattan,East Village,N/A,Film,http://www.imdb.com/title/tt0075314/,12th Street off Third Avenue,poor quality,Y,98-99,,Y
Taxi Driver,1976,Taxi%20Driver,TaxiDriver2_pf,Courtesy of Photofest,Directed by,Martin Scorsese,http://imdb.com/name/nm0000217/,Bellmore Cafeteria<br>Park Ave. South and E. 28th St.<br>Manhattan,40.74335,-73.98405,Manhattan,Midtown,N/A,Film,http://www.imdb.com/title/tt0075314/,"Bellmore Cafeteria, Park Avenue South at 28th St",poor quality,Y,120,,Y
Taxi Driver,1976,Taxi%20Driver,TaxiDriver_pf,Courtesy of Photofest,Directed by,Martin Scorsese,http://imdb.com/name/nm0000217/,Columbus Ave. and E. 86th St.<br>Upper West Side<br>Manhattan,40.7865,-73.9722,Manhattan,Upper West Side,N/A,Film,http://www.imdb.com/title/tt0075314/,Near Columbus Ave and 86th Street,Not sure if this the correct photo,Y,112-113,,Y
The Anderson Tapes,1971,The%20Anderson%20Tapes,TheAndersonTapes_pf,Courtesy of Photofest,Directed by,Sidney Lumet,http://imdb.com/name/nm0001486/,E. 91st St. and Fifth Ave.<br>Upper East Side<br>Manhattan,40.7847,-73.9581,Manhattan,Upper East Side,N/A,Film,http://www.imdb.com/title/tt0066767/,91st street and Fifth Avenue,Has FPO in lower left,Y,130,,Y
The April Fools,1969,The%20April%20Fools,TheAprilFools_ec,"Courtesy of Everett Collection, Inc.",Directed by,Stuart Rosenberg,http://imdb.com/name/nm0742341/,Marine Midlane Bank<br>140 Broadway<br>Lower Manhattan,40.708972,-74.010518,Manhattan,Lower Manhattan,N/A,Film,http://www.imdb.com/title/tt0064036/,Marine Midlane Bank building 140 Broadway bet Liberty st and Ceder st,,Y,70,,Y
The April Fools,1969,The%20April%20Fools,TheAprilFools_pf,Courtesy of Photofest,Directed by,Stuart Rosenberg,http://imdb.com/name/nm0742341/,Central Park<br>Manhattan,40.77326188,-73.9711082,Manhattan,Central Park,N/A,Film,http://www.imdb.com/title/tt0064036/,Central Park near Naumberg Bandshell seating,poor quality,Y,142,,Y
The Basketball Diaries ,1995,The%20Basketball%20Diaries%20,TheBasketballDiaries_pf,Courtesy of Photofest,Directed by,Scott Kalvert,http://imdb.com/name/nm0436284/,Forest Hills,40.729403,-73.845455,Queens,Queens,New York Moments,Film,http://imdb.com/title/tt0112461/,N/A,poor quality,Y,199,N,Y
The Bonfire of the Vanities,1990,The%20Bonfire%20of%20the%20Vanities,,,Directed by,Brian De Palma,http://imdb.com/name/nm0000361/,E. 74th St. and Park Ave.<br>Upper East Side<br>Manhattan,40.77245,-73.9629,Manhattan,Upper East Side,N/A,Film,http://www.imdb.com/title/tt0099165/,74th street and Park Avenue,Additional image p126,Y,227,,N
The Brother from Another Planet,1984,The%20Brother%20from%20Another%20Planet,TheBrother_pf,Courtesy of Photofest,Directed by,John Sayles,http://imdb.com/name/nm0000626/,Ellis Island<br>New York Harbor,40.69736408,-74.04119968,Manhattan,New York Harbor,N/A,Film,http://www.imdb.com/title/tt0087004/,New York Bay - Ellis Island,poor quality,Y,159,,Y
The Brothers McMullen,1995,The%20Brothers%20McMullen,TheBrothersMcmullen_pf,Courtesy of Photofest,Directed by,Edward Burns,http://imdb.com/name/nm0122653/,W. 46th St. and Eighth Ave.<br>Midtown<br>Manhattan,40.7598,-73.9879,Manhattan,Midtown,N/A,Film,http://www.imdb.com/title/tt0112585/,46th and 8th Avenue,slide,N,,,Y
The Cotton Club,1984,The%20Cotton%20Club,,,Directed by,Francis Ford Coppola,http://imdb.com/name/nm0000338/,E. 6th St. between First Ave. & Ave. A<br>East Village<br>Manhattan,40.72597413,-73.9851898,Manhattan,East Village,N/A,Film,http://imdb.com/title/tt0087089/,6th St. between 1st Ave and Avenue A,Mentioned in Medjuck quote p181,Y,,,N
The Cowboy Way,1994,The%20Cowboy%20Way,TheCowboyWay_pf,Courtesy of Photofest,Directed by,Gregg Champion,http://imdb.com/name/nm0150707/,Manhattan Bridge,40.70940164,-73.99183095,Manhattan,Lower Manhattan,Chases,Film,http://www.imdb.com/title/tt0109493/,Manhattan Bridge,,Y,83,,Y
The Devil's Advocate,1997,The%20Devil%27s%20Advocate,TheDevilsAdvocate_pf,Courtesy of Photofest,Directed by,Taylor Hackford,http://www.imdb.com/name/nm0000431/,Chinatown<br>Manhattan,40.71500487,-73.99886906,Manhattan,Chinatown,Rooftops,Film,http://www.imdb.com/title/tt0118971/,Chinatown,Additional image p233,Y,226,,Y
The Fisher King,1991,The%20Fisher%20King,TheFisherKing_pf,Courtesy of Photofest,Directed by,Terry Gilliam,http://imdb.com/name/nm0000416/,Grand Central Station<br>87 E. 42nd St.<br>Manhattan,40.75270258,-73.97726655,Manhattan,Midtown,New York Landmarks,Film,http://www.imdb.com/title/tt0101889/,Grand Central Station - 42nd Street,,Y,170-171,,Y
The French Connection,1971,The%20French%20Connection,TheFrenchConnection_pf,Courtesy of Photofest,Directed by,William Friedkin,http://imdb.com/name/nm0001243/,Bay 50th St. Station<br>Brooklyn,40.58860227,-73.9837575,Brooklyn,Brooklyn,Chases,Film,http://www.imdb.com/title/tt0067116/,86th Street from Bay 50th St. Station to 62nd St Station,Additional image on p61,Y,84-85,,Y
The Godfather Part II,1974,The%20Godfather%20Part%20II,TheGodfatherpartII_ec,"Courtesy of Everett Collection, Inc.",Directed by,Francis Ford Coppola,http://www.imdb.com/name/nm0000338/,E. 6th St. and Ave. A<br>East Village<br>Manhattan,40.72539684,-73.98378432,Manhattan,East Village,N/A,Film,http://www.imdb.com/title/tt0071562/,,,Y,149,,Y
The Honeymooners,1955-1956,The%20Honeymooners,TheHoneymooners_ec,"Courtesy of Everett Collection, Inc.",Directed by,Frank Satenstein,http://imdb.com/name/nm0766129/,358 Chauncy St.<br>Bensonhurst<br>Brooklyn,40.681501,-73.918753,Brooklyn,Brooklyn,N/A,TV,http://www.imdb.com/title/tt0042114/,"358 Chauncy Street, Bensonhurst",,Y,254-255,,Y
The Hours,2002,The%20Hours,TheHours_ec,"Courtesy of Everett Collection, Inc.",Directed by,Stephen Daldry,http://imdb.com/name/nm0197636/,W. 14th St. and Hudson St.<br>West Village<br>Manhattan,40.74059157,-74.00546193,Manhattan ,West Village,N/A,Film,http://imdb.com/title/tt0274558/,Greenwich Village flower shop,,Y,243,,Y
The Interpreter,2005,The%20Interpreter,TheInterpreter3_ec,"Courtesy of Everett Collection, Inc.",Directed by,Sydney Pollack,http://imdb.com/name/nm0001628/,United Nations<br>First Ave. and E. 45th St.<br>Manhattan,40.75067069,-73.96795392,Manhattan,Midtown,N/A,Film,http://www.imdb.com/title/tt0373926/,United nations,2 other pix,Y,216-217,,Y
The Landlord,1970,The%20Landlord,TheLandlord2_pf,Courtesy of Photofest,Directed by,Hal Ashby,http://imdb.com/name/nm0000797/,51 Prospect Pl.<br>Brooklyn,40.67962098,-73.9760381,Brooklyn,Brooklyn,N/A,Film,http://www.imdb.com/title/tt0065963/,"51 Prospect Place, off Sixth Avenue",poor quality,Y,172-173,,Y
The Landlord,1970,The%20Landlord,TheLandlord_pf,Courtesy of Photofest,Directed by,Hal Ashby,http://imdb.com/name/nm0000797/,51 Prospect Pl.<br>Brooklyn,40.679728,-73.975974,Brooklyn,Brooklyn,N/A,Film,http://www.imdb.com/title/tt0065963/,"51 Prospect Place, off Sixth Avenue",poor quality,Y,172-173,,Y
The Late Show with David Letterman,1993-?,The%20Late%20Show%20with%20David%20Letterman,,,Directed by,"Jerry Foley,Randi Grossack,(more)","http://imdb.com/name/nm0284159/,http://www.imdb.com/name/nm0343522/,http://www.imdb.com/title/tt0106053/fullcredits#directors",Ed Sullivan Theatre<br>1697 Broadway<br>Manhattan,40.763719,-73.982833,Manhattan,Midtown,N/A,TV,http://www.imdb.com/title/tt0106053/,1697 Broadway,,Y,264,,N
The Lost Weekend,1945,The%20Lost%20Weekend,,,Directed by,Billy Wilder,http://imdb.com/name/nm0000697/,Third Ave. from E. 55th to 110th St.<br>Upper East Side to E. Harlem<br>Manhattan,40.759,-73.9685,Manhattan,Upper East Side,N/A,Film,http://imdb.com/title/tt0037884/,"Third Avenue from 55th to 110th Street,",,Y,32,,N
The Naked City,1948,The%20Naked%20City,TheNaked_City_01_pf,Courtesy of Photofest,Directed by,Jules Dassin,http://imdb.com/name/nm0202088/,Williamsburg Bridge<br>Brooklyn,40.71132094,-73.96457434,Brooklyn,Brooklyn,N/A,Film,http://imdb.com/title/tt0040636/,Williamsburg Bridge,We have another photo,Y,34,,Y
The Night They Raided Minsky's ,1968,The%20Night%20They%20Raided%20Minsky%27s%20,TheNightTheyRaided_pf,Courtesy of Photofest,Directed by,William Friedkin,http://imdb.com/name/nm0001243/,"E. 26th St. near Second Ave.<br>Manhattan
",40.739701,-73.978935,Manhattan,Midtown,Historic Recreations,Film,http://www.imdb.com/title/tt0063348/,26th Street bet First and Second Aves.,,Y,148,,Y
The Out-of-Towners,1970,The%20Out%2Dof%2DTowners,TheOutofTowners_pf,Courtesy of Photofest,Directed by,Arthur Hiller,http://imdb.com/name/nm0002137/,Central Park<br>Manhattan,40.78970474,-73.96065831,Manhattan,Central Park,N/A,Film,http://www.imdb.com/title/tt0066193/,Central Park,poor quality,Y,144,,Y
The Panic in Needle Park,1971,The%20Panic%20in%20Needle%20Park,ThePanicinNeedlePark_pf,Courtesy of Photofest,Directed by,Jerry Schatzberg,http://imdb.com/name/nm0770234/,W. 72nd St. and Broadway<br>Upper West Side<br>Manhattan,40.7788,-73.9821,Manhattan,Upper West Side,N/A,Film,http://www.imdb.com/title/tt0067549/,72nd street and Broadway,poor quality,Y,218-219,,Y
The Pawnbroker,1965,The%20Pawnbroker,,,Directed by,Sidney Lumet,http://imdb.com/name/nm0001486/,Park Ave. and E. 116th St.<br>Harlem<br>Manhattan,40.79935,-73.94325,Manhattan,Harlem,N/A,Film,http://imdb.com/title/tt0059575/,Park Avenue and 116th Street,,Y,50,,N
The Pickle ,1993,The%20Pickle%20,ThePickle_pf,Courtesy of Photofest,Directed by,Paul Mazursky,http://imdb.com/name/nm0005196/,Brighton Beach Boardwalk<br>Brooklyn,40.57488865,-73.96376431,Brooklyn,Brooklyn,N/A,Film,http://www.imdb.com/title/tt0107824/,Brighton Beach Boardwalk,JAMES CROSSED OUT,N,,,Y
The Pick-Up Artist,1984,The%20Pick%2DUp%20Artist,,,Directed by,James Toback,http://imdb.com/name/nm0864812/,Columbus Ave. near W. 75th St.<br>Upper West Side<br>Manhattan,40.7794,-73.9774,Manhattan,Upper West Side,N/A,Film,http://www.imdb.com/title/tt0093737/,Columbus Ave near 75th Street,Additional image p247,Y,222,,N
The Prisoner of Second Avenue,1975,The%20Prisoner%20of%20Second%20Avenue,ThePrisonerof2ndAve_pf,Courtesy of Photofest,Directed by,Melvin Frank,http://imdb.com/name/nm0291035/,Second Ave. and E. 87th St.<br>Upper East Side<br>Manhattan,40.7786,-73.9513,Manhattan,Upper East Side,N/A,Film,http://www.imdb.com/title/tt0072034/,2nd Avenue at 87th Street,,Y,107,,Y
The Producers,1968,The%20Producers,TheProducers1_pf,Courtesy of Photofest,Directed by,Mel Brooks,http://imdb.com/name/nm0000316/,East 80's<br>Upper East Side<br>Manhattan,40.77708049,-73.9539206,Manhattan,Upper East Side,N/A,Film,http://www.imdb.com/title/tt0063462/,Lincoln Center - Columbus Avenue & 61st Street,poor quality,Y,56,,Y
The Producers,1968,The%20Producers,TheProducers2_pf,Courtesy of Photofest,Directed by,Mel Brooks,http://imdb.com/name/nm0000316/,Lincoln Center Plaza<br>Upper West Side<br>Manhattan,40.77234375,-73.98341954,Manhattan,Upper West Side,N/A,Film,http://www.imdb.com/title/tt0063462/,Lincoln Center - Columbus Avenue & 61st Street,poor quality,Y,56,,Y
The Producers,2005,The%20Producers,,,Directed by,Susan Stroman,http://imdb.com/name/nm0834893/,Lincoln Center Plaza<br>Upper West Side<br>Manhattan,40.77214875,-73.98319423,Manhattan,Upper West Side,N/A,Film,http://www.imdb.com/title/tt0395251/,Lincoln Center Plaza,,Y,210,,N
The Professional,1994,The%20Professional,TheProfessional_ec,"Courtesy of Everett Collection, Inc.",Directed by,Luc Besson,http://imdb.com/name/nm0000108/,Manhattan,40.75421427,-73.96904826,Manhattan,Midtown,New York Moments,Film,http://imdb.com/title/tt0110413/,N/A,,Y,202,N,Y
The Royal Tenenbaums,2001,The%20Royal%20Tenenbaums,TheRoyalTenenbaums_pf,Courtesy of Photofest,Directed by,Wes Anderson,http://imdb.com/name/nm0027572/,Convent Ave. and 144th St.<br>Hamilton Heights<br>Manhattan,40.824,-73.9467,Manhattan,Harlem,N/A,Film,http://www.imdb.com/title/tt0265666/,"Covent Avenue and 144th Street, Hamilton Heights",,Y,208,,Y
The Seven Year Itch,1955,The%20Seven%20Year%20Itch,TheSevenYearItch_pf,Courtesy of Photofest,Directed by,Billy Wilder,http://imdb.com/name/nm0000697/,Lexington Ave. between 51st St. and 52nd St.<br>Midtown<br>Manhattan,40.75744885,-73.97163928,Manhattan,Midtown,N/A,Film,http://imdb.com/title/tt0048605/,Lexington Avenue between 51st and 52nd Streets,,Y,38-39,,Y
The Siege,1998,The%20Siege,TheSiege_pf,Courtesy of Photofest,Directed by,Edward Zwick,http://imdb.com/name/nm0001880/,Greenpoint<br>Brooklyn,40.73025075,-73.95436049,Brooklyn,Brooklyn,N/A,Film,http://www.imdb.com/title/tt0133952/,"Brooklyn Bridge, Greenpooint",,Y,184,,Y
The Sopranos,1999-2007,The%20Sopranos,,,Created by,"David Chase,(more)","http://imdb.com/name/nm0153740/,http://imdb.com/title/tt0141842/fullcredits#writers","Empire Stores Park<br>Brooklyn Bridge
",40.704089,-73.993617,Brooklyn,Brooklyn,N/A,TV,http://www.imdb.com/title/tt0141842/,F.A.O. Schwarz - 58th and Fifth Avenue,,Y,270-271,,N
The Squid and the Whale,2005,The%20Squid%20and%20the%20Whale,,,Directed by,Noah Baumbach,http://imdb.com/name/nm0000876/,Museum of Natural History<br>W. 79th St. and Central Park West<br>Manhattan,40.78099638,-73.97245467,Manhattan,Upper West Side,N/A,Film,http://www.imdb.com/title/tt0367089/,Museum of natural History 81st and Central Park West,,Y,213,,N
The Taking of Pelham One Two Three,1974,The%20Taking%20of%20Pelham%20One%20Two%20Three,,,Directed by,Joseph Sargent,http://imdb.com/name/nm0765121/,Subway near Court St.<br>Brooklyn,40.69307721,-73.9907366,Brooklyn,Brooklyn,N/A,Film,http://www.imdb.com/title/tt0072251/,Subway near Court St.,Additional Image on p94 of the book,Y,66,,N
The Warriors,1979,The%20Warriors,TheWarriors_pf,Courtesy of Photofest,Directed by,Walter Hill,http://imdb.com/name/nm0001353/,Astroland<br>Coney Island <br>Brooklyn,40.57464417,-73.97885978,Brooklyn,Brooklyn,The Subway,Film,http://www.imdb.com/title/tt0080120/,Coney Island boardwalk,poor quality,Y,136,,Y
The Warriors,1979,The%20Warriors,TheWarriors2_pf,Courtesy of Photofest,Directed by,Walter Hill,http://imdb.com/name/nm0001353/,Subway Car<br>Coney Island<br>Brooklyn,40.5757606,-73.98127377,Brooklyn,Brooklyn,The Subway,Film,http://www.imdb.com/title/tt0080120/,Coney Island boardwalk,poor quality,Y,136,,Y
The Wiz,1978,The%20Wiz,,,Directed by,Sidney Lumet,http://imdb.com/name/nm0001486/,World Trade Center<br>Lower Manhattan,40.71092245,-74.01405036,Manhattan,Lower Manhattan,N/A,Film,http://www.imdb.com/title/tt0078504/,World Trade Center,,Y,88,,N
The Wrong Man,1956,The%20Wrong%20Man,TheWrongMan_ec,"Courtesy of Everett Collection, Inc.",Directed by,Alfred Hitchcock,http://imdb.com/name/nm0000033/,Subway at 53rd St. and Fifth Ave.<br>Midtown<br>Manhattan,40.76050449,-73.97546411,Manhattan,Midtown,N/A,Film,http://imdb.com/title/tt0051207/,Subway at 53rd Street and Fifth Avenue,,Y,42,,Y
Three Days of the Condor,1975,Three%20Days%20of%20the%20Condor,ThreeDaysoftheCondor_ec,"Courtesy of Everett Collection, Inc.",Directed by,Sydney Pollack,http://imdb.com/name/nm0001628/,Riverside Drive<br>Upper West Side<br>Manhattan,40.81431267,-73.96185994,Manhattan,Harlem,N/A,Film,http://www.imdb.com/title/tt0073802/,North of 124th Street and Riverside Drive,poor quality,Y,62,,Y
Times Square,1980,Times%20Square,TimesSquare2_pf,Courtesy of Photofest,Directed by,Allan Moyle,http://imdb.com/name/nm0610496/,W. 42nd St. between Seventh Ave. and Eighth Ave.<br>Times Square<br>Manhattan,40.75668492,-73.98842454,Manhattan,Times Square,N/A,Film,http://www.imdb.com/title/tt0081635/,Times Square,poor quality,Y,236,,Y
Tootsie,1982,Tootsie,Tootsie_pf,Courtesy of Photofest,Directed by,Sydney Pollack,http://imdb.com/name/nm0001628/,W. 42nd between Ninth Ave. and Tenth Ave.<br>Midtown<br>Manhattan,40.75918798,-73.99477601,Manhattan,Midtown,N/A,Film,http://www.imdb.com/title/tt0084805/,42nd between 9th and 10th Aves,poor quality,Y,237,,Y
Two for the Seesaw,1962,Two%20for%20the%20Seesaw,,,Directed by,"Robert Wise
",http://imdb.com/name/nm0936404/,Brooklyn Bridge,40.705693,-73.99630487,Manhattan,Lower Manhattan,N/A,Film,http://www.imdb.com/title/tt0056626/,Brooklyn Bridge,,N,,,N
Up the Down Staircase,1967,Up%20the%20Down%20Staircase,UpTheDownStaircase_pf,Courtesy of Photofest,Directed by,Robert Mulligan,http://imdb.com/name/nm0612322/,East Harlem (El Barrio)<br>Manhattan,40.79792464,-73.94221544,Manhattan,Harlem,N/A,Film,http://www.imdb.com/title/tt0062425/,East Harlem (El Barrio),,Y,240,,Y
Up the Sandbox,1972,Up%20the%20Sandbox,UptheSandbox_pf,Courtesy of Photofest,Directed by,Irvin Kershner,http://imdb.com/name/nm0449984/,Carousel<br>Central Park<br>Manhattan,40.77056434,-73.97752404,Manhattan,Central Park,N/A,Film,http://www.imdb.com/title/tt0069449/,Central Park,poor quality,Y,143,,Y
Up the Sandbox,1972,Up%20the%20Sandbox,UptheSandbox2_ec,"Courtesy of Everett Collection, Inc.",Directed by,Irvin Kershner,http://imdb.com/name/nm0449984/,Riverside Park near W. 109th St.<br>Morningside Heights<br>Manhattan,40.805169,-73.96920919,Manhattan,Morningside Heights,N/A,Film,http://www.imdb.com/title/tt0069449/,Riverside Park,We have another photo,Y,221,,Y
Uptown Girls,2003,Uptown%20Girls,,,Directed by,Boaz Yakin,http://imdb.com/name/nm0945026/,Astroland<br>Coney Island <br>Brooklyn,40.57402483,-73.97888124,Brooklyn,Brooklyn,N/A,Film,http://www.imdb.com/title/tt0263757/,Coney Island,,Y,138-139,,N
Vanilla Sky,2001,Vanilla%20Sky,VanillaSky_pf,Courtesy of Photofest,Directed by,Cameron Crowe,http://imdb.com/name/nm0001081/,W. 45th St. and Seventh Ave.<br>Times Square<br>Manhattan,40.75787145,-73.98539901,Manhattan,Times Square,N/A,Film,http://www.imdb.com/title/tt0259711/,Times Square,slide,Y,185,,Y
Wall Street,1987,Wall%20Street,WallStreet1_pf,Courtesy of Photofest,Directed by,Oliver Stone,http://imdb.com/name/nm0000231/,New York Stock Exchange<br>Exchange Place<br>Lower Manhattan,40.70605086,-74.01056349,Manhattan,Lower Manhattan,New York Landmarks,Film,http://www.imdb.com/title/tt0094291/,New York Stock Exchange - Exchange place near broadway,,Y,169,,Y
Wall Street,1987,Wall%20Street,,,Directed by,Oliver Stone,http://imdb.com/name/nm0000231/,Broadway and Vesey St.,40.7114,-74.0086,Manhattan,Lower Manhattan,N/A,Film,http://www.imdb.com/title/tt0094291/,Broadway and Vesey Street,,Y,164,,N
West Side Story,1961,West%20Side%20Story,WestSideStory_pf,Courtesy of Photofest,Directed by,"Robert Wise,Jerome Robbins","http://imdb.com/name/nm0936404/,http://imdb.com/name/nm0730385/",W. 68th St.<br>Upper West Side<br>Manhattan,40.77621929,-73.98391843,Manhattan,Upper West Side,N/A,Film,http://imdb.com/title/tt0055614/,West 68th Street,,Y,46-47,,Y
West Side Story,1961,West%20Side%20Story,WestSideStory2_pf,Courtesy of Photofest,Directed by,"Robert Wise,Jerome Robbins","http://imdb.com/name/nm0936404/,http://imdb.com/name/nm0730385/",W. 68th St.<br>Upper West Side<br>Manhattan,40.77651178,-73.98512006,Manhattan,Upper West Side,N/A,Film,http://imdb.com/title/tt0055614/,West 68th Street,,Y,46-47,,Y
When Harry Met Sally…,1989,When%20Harry%20Met%20Sally%85,WhenHarryMetSally9_pf,"Courtesy of Everett Collection, Inc.",Directed by,Rob Reiner,http://www.imdb.com/name/nm0001661/,Katz's Deli<br>205 E. Houston St.<br>Manhattan,40.722322,-73.987433,Manhattan,Lower East Side,N/A,Film,http://www.imdb.com/title/tt0098635/,Katz's Deli - Houston Street at Ludlow St,,Y,166-167,,Y
When Harry Met Sally…,1989,When%20Harry%20Met%20Sally%85,WhenHarryMetSally9_pf,"Courtesy of Everett Collection, Inc.",Directed by,Rob Reiner,http://www.imdb.com/name/nm0001661/,Washington Square Park<br>West Village<br>Manhattan,40.73113694,-73.99718463,Manhattan,West Village,N/A,Film,http://www.imdb.com/title/tt0098635/,Washington Square Park,,Y,79,,N
Wolfen,1981,Wolfen,,,Directed by,Michael Wadleigh,http://imdb.com/name/nm0905579/,World Trade Center<br>Lower Manhattan,40.71013359,-74.01267707,Manhattan,Lower Manhattan,N/A,Film,http://www.imdb.com/title/tt0083336/,World Trade Center,,Y,189,,N
Wolfen,1981,Wolfen,,,Directed by,Michael Wadleigh,http://imdb.com/name/nm0905579/,Manhattan Bridge,40.70823052,-73.99117649,Manhattan ,Lower Manhattan,N/A,Film,http://www.imdb.com/title/tt0083336/,Manhattan Bridge,,Y,189,,N
Wolfen,1981,Wolfen,,,Directed by,Michael Wadleigh,http://imdb.com/name/nm0905579/,Charlotte St.<br>The Bronx,40.83478796,-73.89212251,The Bronx,The Bronx,N/A,Film,http://www.imdb.com/title/tt0083336/,Charlotte Street near 172nd Street,,Y,127,,N
Working Girl,1988,Working%20Girl,WorkingGirl_pf,Courtesy of Photofest,Directed by,Mike Nichols,http://imdb.com/name/nm0001566/,Staten Island Ferry<br>New York Harbor,40.68233035,-74.03574944,Staten Island,Staten Island,N/A,Film,http://www.imdb.com/title/tt0096463/,Staten Island Ferry - crossing the upper bay,poor quality,Y,165,,Y
You're a Big Boy Now,1966,You%27re%20a%20Big%20Boy%20Now,YoureaBigBoyNow_pf,Courtesy of Photofest,Directed by,Francis Ford Coppola,http://imdb.com/name/nm0000338/,Steeplechase Park<br>Coney Island<br>Brooklyn,40.57472566,-73.98032963,Brooklyn,Brooklyn,N/A,Film,http://www.imdb.com/title/tt0061209/,"Steeplechase Park, Coney Island",poor quality,Y,68,,Y
You're a Big Boy Now,1966,You%27re%20a%20Big%20Boy%20Now,YoureaBigBoyNow2_pf,Courtesy of Photofest,Directed by,Francis Ford Coppola,http://imdb.com/name/nm0000338/,"New York Public Library<br>Fifth Ave. and 41st St.<br>Manhattan
",40.75286513,-73.98153663,Manhattan,Midtown,N/A,Film,http://www.imdb.com/title/tt0061209/,"New York Public Library, Fifth ave bt 41st and 42nd",poor quality,Y,71,,Y
You've Got Mail,1998,You%27ve%20Got%20Mail,YouveGotMail1_pf,Courtesy of Photofest,Directed by,Nora Ephron,http://imdb.com/name/nm0001188/,Verdi Square<br>W. 73rd St.  & Broadway<br>Manhattan,40.77925782,-73.98153663,Manhattan,Upper West Side,N/A,Film,http://www.imdb.com/title/tt0128853/,Verdi Square,,Y,223,,Y
You've Got Mail,1998,You%27ve%20Got%20Mail,YouveGotMail2_pf,Courtesy of Photofest,Directed by,Nora Ephron,http://imdb.com/name/nm0001188/,91st Street Community Garden<br>Riverside Park<br>Manhattan,40.79282387,-73.97741675,Manhattan,Upper West Side,N/A,Film,http://www.imdb.com/title/tt0128853/,91st Street Community Garden,,Y,206,,Y